Lat,Lon,Site,Crop
38.30006584,-121.9105017,VAC,Almonds
36.80132922,-120.2094058,OLA,Almonds
38.66732869,-121.8920491,WWF,Almonds
39.6038407,-122.255854,ART_011,Olives
39.37372829,-121.5713274,ORO_022,Olives
39.36140698,-121.5737736,ORO_043,Olives
39.87877353,-122.1528411,COR_CS3,Olives
38.62080191,-121.7272389,BLS_001,Pistachios
38.62092764,-121.7225933,BLS_002,Pistachios
38.50336528,-122.7741694,FLT,Grapes
38.48930047,-122.8312361,SLC,Grapes
37.546815,-121.239103,WES,Almonds